     2.11           OBSERVATION DATA    Mixed(MIXED)        RINEX VERSION / TYPE
cnvtToRINEX 3.07.0  convertToRINEX OPR  23-Jun-18 03:20 UTC PGM / RUN BY / DATE 
----------------------------------------------------------- COMMENT             
st                                                          MARKER NAME         
st                                                          MARKER NUMBER       
GNSS Observer       Trimble                                 OBSERVER / AGENCY   
5535S01460          Unknown             5.33                REC # / TYPE / VERS 
                    UNKNOWN EXT                             ANT # / TYPE        
 -4647137.5830  2562189.6255 -3526626.7006                  APPROX POSITION XYZ 
        2.0000        0.0000        0.0000                  ANTENNA: DELTA H/E/N
     1     1     0                                          WAVELENGTH FACT L1/2
     7    C1    C2    C8    L1    L2    L8    P2            # / TYPES OF OBSERV 
    15.000                                                  INTERVAL            
  2018     6    22     6    17   30.0000000     GPS         TIME OF FIRST OBS   
  2018     6    22     6    18    0.0000000     GPS         TIME OF LAST OBS    
     0                                                      RCV CLOCK OFFS APPL 
    18                                                      LEAP SECONDS        
    13                                                      # OF SATELLITES     
   E07     3     0     3     3     0     3     0            PRN / # OF OBS      
   E19     3     0     3     3     0     3     0            PRN / # OF OBS      
   G03     3     3     0     3     3     0     0            PRN / # OF OBS      
   G07     3     3     0     3     3     0     0            PRN / # OF OBS      
   G09     3     3     0     3     3     0     0            PRN / # OF OBS      
   G16     2     0     0     1     0     0     0            PRN / # OF OBS      
   G23     3     0     0     3     3     0     3            PRN / # OF OBS      
   G30     3     3     0     3     3     0     0            PRN / # OF OBS      
   R07     3     3     0     3     3     0     0            PRN / # OF OBS      
   R08     3     3     0     3     3     0     0            PRN / # OF OBS      
   R09     3     3     0     3     3     0     0            PRN / # OF OBS      
   R10     3     3     0     3     3     0     0            PRN / # OF OBS      
   R11     3     3     0     3     3     0     0            PRN / # OF OBS      
CARRIER PHASE MEASUREMENTS: PHASE SHIFTS REMOVED            COMMENT             
                                                            END OF HEADER       
                            2  1
              *** Start of Kinematic Data ***               COMMENT             
 18  6 22  6 17 30.0000000  0 12E07E19G03G07G09G23G30R07R08R09R10R11
  25808828.891 6                                 135626313.27616
                
  24801310.313 6                                 130331740.82716
                
  22719526.844 6  22719529.445 9                 119391903.87816  93032650.95319
                
  21380867.281 7  21380867.410 9                 112357195.72717  87551070.73319
                
  20597523.711 7  20597526.453 9                 108240713.28817  84343413.91019
                
  20635666.211 7                                 108441156.83317  84499597.63558
                  20635665.78548
  23775450.258 5  23775452.496 8                 124940872.40715  97356496.13018
                
  19499648.945 8  19499653.477 9                 104383146.76718  81186895.55019
                
  19939971.531 7  19939973.359 9                 106777642.89617  83049274.93919
                
  20724753.367 4  20724753.781 8                 110669018.46014  86075903.82718
                
  19556307.625 8  19556311.102 8                 104246122.76318  81080318.45518
                
  22714328.641 6  22714332.859 9                 121378503.84916  94405490.12819
                
                            3  5
              *** Start of Occupation ***                   COMMENT             
st                                                          MARKER NAME         
st                                                          MARKER NUMBER       
 -4647137.5830  2562189.6255 -3526626.7006                  APPROX POSITION XYZ 
        2.0000        0.0000        0.0000                  ANTENNA: DELTA H/E/N
 18  6 22  6 17 45.0000000  0 13E07E19G03G07G09G16G23G30R07R08R09R10
                                R11
  25812508.883 6                                 135645648.415 6
                
  24792482.914 5                                 130285356.049 5
                
  22726104.156 6  22726108.059 9                 119426472.967 6  93059587.950 9
                
  21373154.352 7  21373154.770 9                 112316665.247 7  87519488.604 9
                
  20590090.555 6  20590093.324 9                 108201653.222 6  84312977.501 9
                
  22390668.688 1                                 117663707.99211
                
  20635261.125 7                                 108439026.947 7  84497937.96048
                  20635260.42248
  23765217.445 4  23765222.996 8                 124887106.419 4  97314600.553 8
                
  19501288.969 8  19501292.793 9                 104391921.670 8  81193720.468 9
                
  19930216.594 7  19930218.660 9                 106725406.476 7  83008646.620 9
                
  20729561.023 2  20729561.918 7                 110694697.728 2  86095876.621 7
                
  19552537.852 8  19552541.617 8                 104226026.362 8  81064687.932 8
                
  22702489.289 7  22702490.770 8                 121315231.372 7  94356278.295 8
                
 18  6 22  6 18  0.0000000  0 13E07E19G03G07G09G16G23G30R07R08R09R10
                                R11
  25816203.859 6                                 135665067.553 6
                
  24783671.875 5                                 130239053.319 5
                
  22732698.836 6  22732701.797 9                 119461124.845 6  93086589.360 9
                
  21365460.742 7  21365461.684 9                 112276235.412 7  87487984.854 9
                
  20582677.594 7  20582680.250 9                 108162696.228 7  84282621.423 9
                
  22393948.930 1                                                
                
  20634879.266 7                                 108437021.814 7  84496375.52248
                  20634879.28548
  23754999.703 1  23755004.672 8                 124833412.772 1  97272761.299 8
                
  19502966.578 8  19502970.813 9                 104400904.964 8  81200707.455 9
                
  19920495.289 7  19920497.484 9                 106673349.798 7  82968158.110 9
                
  20734386.398 2  20734386.195 7                 110720464.457 2  86115917.326 7
                
  19548798.977 8  19548802.621 8                 104206095.458 8  81049186.119 8
                
  22690668.734 7  22690670.457 8                 121252072.444 7  94307154.731 8
                
                            2  1
              *** Start of Kinematic Data ***               COMMENT             
